City_ID,City,Lat,Lng,Max Temp,Humidity,Cloudiness,Wind Speed,Country,Date
0,ranong,9.9658,98.6348,24.3,83,72,1.32,TH,2023-03-04 20:08:13
1,bredasdorp,-34.5322,20.0403,19.84,87,93,1.75,ZA,2023-03-04 20:08:13
2,yulara,-25.2406,130.9889,19.87,21,0,1.54,AU,2023-03-04 20:08:14
3,kudahuvadhoo,2.6708,72.8944,27.16,75,74,5.04,MV,2023-03-04 20:08:14
4,hong gai,20.956,107.0946,17.95,87,1,0.82,VN,2023-03-04 20:08:14
5,rikitea,-23.1203,-134.9692,26.57,76,100,7.49,PF,2023-03-04 20:08:14
6,nizhniy kuranakh,58.8353,125.4869,-4.77,92,100,5.11,RU,2023-03-04 20:08:14
7,saint-philippe,-21.3585,55.7679,24.77,88,100,2.29,RE,2023-03-04 20:08:15
8,tasiilaq,65.6145,-37.6368,0.09,96,78,2.08,GL,2023-03-04 20:08:15
9,camana,-16.6228,-72.7111,25.17,70,47,3.35,PE,2023-03-04 20:08:15
10,geraldton,-28.7667,114.6,18.23,77,0,4.12,AU,2023-03-04 20:08:15
11,sao joao da barra,-21.6403,-41.0511,25.67,81,27,7.48,BR,2023-03-04 20:08:16
12,mataura,-46.1927,168.8643,9.15,95,76,0.2,NZ,2023-03-04 20:08:16
13,kishtwar,33.3167,75.7667,7.01,71,15,2.4,IN,2023-03-04 20:08:16
14,turukhansk,65.8167,87.9833,-19.79,98,100,4.67,RU,2023-03-04 20:08:16
15,port alfred,-33.5906,26.891,20.66,95,21,3.71,ZA,2023-03-04 20:08:17
16,albany,42.6001,-73.9662,2.91,88,100,1.83,US,2023-03-04 19:59:13
17,busselton,-33.65,115.3333,16.39,71,64,4.28,AU,2023-03-04 20:08:17
18,torbay,47.6666,-52.7314,-1.9,54,41,4.02,CA,2023-03-04 20:08:17
19,hithadhoo,-0.6,73.0833,27.79,73,55,2.71,MV,2023-03-04 20:08:18
20,waipawa,-41.4122,175.5153,13.46,82,100,3.19,NZ,2023-03-04 20:08:18
21,jamestown,42.097,-79.2353,2.77,90,100,4.12,US,2023-03-04 20:08:18
22,butaritari,3.0707,172.7902,27.19,78,100,3.23,KI,2023-03-04 20:08:18
23,bluff,-46.6,168.3333,9.33,65,79,3.4,NZ,2023-03-04 20:08:19
24,mount isa,-20.7333,139.5,22.87,100,40,0.51,AU,2023-03-04 20:08:19
25,touros,-5.1989,-35.4608,27.73,72,86,6.63,BR,2023-03-04 20:08:19
26,barrow,71.2906,-156.7887,-36.99,98,100,4.12,US,2023-03-04 20:08:19
27,hasaki,35.7333,140.8333,6.79,63,100,7.93,JP,2023-03-04 20:08:19
28,marsa matruh,31.3525,27.2453,17.81,70,17,5.13,EG,2023-03-04 20:08:20
29,kedrovyy,56.1667,91.8167,-7.77,90,100,4.79,RU,2023-03-04 20:08:20
30,port elizabeth,-33.918,25.5701,23.39,98,100,2.06,ZA,2023-03-04 20:08:20
31,avarua,-21.2078,-159.775,29.03,70,75,5.14,CK,2023-03-04 20:08:20
32,ribeira grande,38.5167,-28.7,16.22,72,75,11.62,PT,2023-03-04 20:08:21
33,ushuaia,-54.8,-68.3,7.81,61,75,9.26,AR,2023-03-04 20:05:31
34,atuona,-9.8,-139.0333,26.63,80,14,6.45,PF,2023-03-04 20:08:21
35,tobermory,45.2501,-81.6665,1.1,77,28,4.74,CA,2023-03-04 20:08:21
36,saint-pierre,-21.3393,55.4781,24.82,88,100,3.09,RE,2023-03-04 20:05:20
37,namibe,-15.1961,12.1522,21.0,71,0,4.57,AO,2023-03-04 20:08:22
38,dikson,73.5069,80.5464,-20.62,96,100,3.95,RU,2023-03-04 20:03:37
39,homer,59.6425,-151.5483,-5.07,42,0,6.17,US,2023-03-04 20:08:22
40,yellowknife,62.456,-114.3525,-24.71,70,40,5.14,CA,2023-03-04 20:08:22
41,bereda,43.2686,-7.5406,3.97,97,0,1.3,ES,2023-03-04 20:08:23
42,east london,-33.0153,27.9116,22.96,87,38,2.58,ZA,2023-03-04 20:05:45
43,tshikapa,-6.4167,20.8,24.82,74,100,1.23,CD,2023-03-04 20:08:23
44,cape town,-33.9258,18.4232,23.54,77,100,1.35,ZA,2023-03-04 20:04:06
45,gamba,-2.65,10.0,25.87,86,100,2.71,GA,2023-03-04 20:08:24
46,doba,8.65,16.85,31.09,11,76,2.66,TD,2023-03-04 20:08:24
47,kasongo-lunda,-6.4667,16.8167,22.12,96,100,1.24,CD,2023-03-04 20:08:24
48,ilulissat,69.2167,-51.1,4.01,60,40,1.54,GL,2023-03-04 20:08:24
49,pisco,-13.7,-76.2167,26.03,65,0,3.09,PE,2023-03-04 20:08:25
50,mildura,-34.2,142.15,17.95,46,0,2.22,AU,2023-03-04 20:08:25
51,hermanus,-34.4187,19.2345,19.33,92,100,4.6,ZA,2023-03-04 20:08:25
52,leningradskiy,69.3833,178.4167,-27.6,97,99,5.07,RU,2023-03-04 20:08:25
53,hilo,19.7297,-155.09,24.51,86,75,2.06,US,2023-03-04 20:08:25
54,bambous virieux,-20.3428,57.7575,27.9,81,100,2.92,MU,2023-03-04 20:08:26
55,bay roberts,47.5999,-53.2648,-1.48,51,30,4.47,CA,2023-03-04 20:08:26
56,new norfolk,-42.7826,147.0587,16.51,73,100,0.23,AU,2023-03-04 20:08:26
57,kavieng,-2.5744,150.7967,25.22,86,100,3.33,PG,2023-03-04 20:08:26
58,krasnovishersk,60.4078,57.082,-4.75,98,100,1.4,RU,2023-03-04 20:08:27
59,puerto ayora,-0.7393,-90.3518,28.98,86,62,3.13,EC,2023-03-04 20:08:27
60,kralendijk,12.15,-68.2667,25.65,83,3,11.07,BQ,2023-03-04 20:08:27
61,sangar,63.9242,127.4739,-22.86,99,100,1.28,RU,2023-03-04 20:08:27
62,vaini,-21.2,-175.2,29.09,84,75,5.14,TO,2023-03-04 20:08:27
63,wichita falls,33.9137,-98.4934,19.12,37,0,3.6,US,2023-03-04 20:08:28
64,punta arenas,-53.15,-70.9167,9.06,57,75,5.66,CL,2023-03-04 20:08:28
65,arraial do cabo,-22.9661,-42.0278,25.35,82,66,11.19,BR,2023-03-04 20:08:28
66,castro,-24.7911,-50.0119,21.97,89,56,3.26,BR,2023-03-04 20:08:28
67,soe,-9.8607,124.284,17.59,93,100,1.75,ID,2023-03-04 20:08:28
68,cabedelo,-6.9811,-34.8339,27.67,72,100,5.66,BR,2023-03-04 20:08:29
69,rind,39.7597,45.18,6.31,70,98,1.55,AM,2023-03-04 20:08:29
70,thompson,55.7435,-97.8558,-7.9,80,93,3.77,CA,2023-03-04 20:08:29
71,khatanga,71.9667,102.5,-21.43,99,100,3.22,RU,2023-03-04 20:08:29
72,la ronge,55.1001,-105.2842,-11.88,67,100,6.17,CA,2023-03-04 20:08:29
73,lubango,-14.9172,13.4925,17.15,47,8,1.54,AO,2023-03-04 20:08:30
74,mar del plata,-38.0023,-57.5575,21.57,72,0,1.79,AR,2023-03-04 20:07:06
75,port blair,11.6667,92.75,26.19,76,0,2.3,IN,2023-03-04 20:08:30
76,bethel,41.3712,-73.414,6.63,75,100,4.12,US,2023-03-04 20:08:30
77,presidente bernardes,-22.0061,-51.5531,28.91,69,56,2.45,BR,2023-03-04 20:08:30
78,canon city,38.441,-105.2424,10.56,56,40,2.68,US,2023-03-04 20:08:31
79,taoudenni,22.6783,-3.9836,27.18,12,21,3.97,ML,2023-03-04 20:08:31
80,tual,-5.6667,132.75,27.87,78,100,9.24,ID,2023-03-04 20:08:31
81,kharp,66.8014,65.8081,-25.41,95,22,2.09,RU,2023-03-04 20:08:31
82,atar,20.5169,-13.0499,26.21,18,3,4.46,MR,2023-03-04 20:08:32
83,northam,51.0333,-4.2167,5.34,71,8,1.13,GB,2023-03-04 20:08:32
84,san patricio,28.017,-97.5169,28.98,33,0,5.21,US,2023-03-04 20:08:32
85,upernavik,72.7868,-56.1549,-12.09,80,99,3.61,GL,2023-03-04 20:08:32
86,maceio,-9.6658,-35.7353,28.17,69,1,4.74,BR,2023-03-04 20:08:33
87,hobart,-42.8794,147.3294,16.7,93,75,1.03,AU,2023-03-04 20:08:33
88,mayo,38.8876,-76.5119,14.26,46,0,10.73,US,2023-03-04 20:08:33
89,buchanan,5.8808,-10.0467,27.03,84,2,3.25,LR,2023-03-04 20:08:33
90,longyearbyen,78.2186,15.6401,-14.09,56,75,8.75,SJ,2023-03-04 20:08:33
91,sao gabriel da cachoeira,-0.1303,-67.0892,28.28,79,99,0.97,BR,2023-03-04 20:05:04
92,salalah,17.0151,54.0924,23.52,59,0,0.86,OM,2023-03-04 20:01:56
93,mnogovershinnyy,53.9353,139.9242,-10.69,90,100,2.97,RU,2023-03-04 20:08:34
94,meulaboh,4.1363,96.1285,23.89,88,79,2.09,ID,2023-03-04 20:08:34
95,bani walid,31.7566,13.9942,15.56,23,100,5.67,LY,2023-03-04 20:08:34
96,sarab,38.6066,44.9883,10.69,54,100,2.42,IR,2023-03-04 20:08:35
97,male,4.1748,73.5089,27.97,83,40,6.69,MV,2023-03-04 20:07:36
98,sampit,-2.5333,112.95,22.62,99,100,1.03,ID,2023-03-04 20:08:35
99,save,8.0425,2.486,28.99,59,73,1.12,BJ,2023-03-04 20:08:36
100,kapaa,22.0752,-159.319,25.18,78,20,5.14,US,2023-03-04 20:08:36
101,camabatela,-8.1881,15.375,18.54,96,100,0.98,AO,2023-03-04 20:08:36
102,chkalovskoye,44.8392,133.0436,-8.51,87,5,2.31,RU,2023-03-04 20:08:36
103,ko samui,9.5357,99.9357,26.71,73,80,4.01,TH,2023-03-04 20:08:20
104,anloga,5.7947,0.8973,28.29,79,100,4.41,GH,2023-03-04 20:08:37
105,monrovia,6.3005,-10.7969,27.87,85,9,3.4,LR,2023-03-04 20:08:37
106,mitchell,43.7094,-98.0298,2.99,70,0,5.14,US,2023-03-04 20:08:37
107,college,64.8569,-147.8028,-19.33,72,0,1.54,US,2023-03-04 20:08:37
108,san quintin,30.4833,-115.95,15.14,66,0,6.38,MX,2023-03-04 20:08:38
109,nome,64.5011,-165.4064,-11.96,100,100,10.8,US,2023-03-04 20:08:38
110,saskylakh,71.9167,114.0833,-30.26,100,95,1.34,RU,2023-03-04 20:08:38
111,hollabrunn,48.55,16.0833,5.46,73,18,0.45,AT,2023-03-04 20:08:38
112,jalu,29.0331,21.5482,17.86,61,53,8.62,LY,2023-03-04 20:08:39
113,lagoa,39.05,-27.9833,14.43,69,100,7.37,PT,2023-03-04 20:08:39
114,chuy,-33.6971,-53.4616,25.56,57,42,4.18,UY,2023-03-04 20:08:39
115,tuktoyaktuk,69.4541,-133.0374,-31.43,98,90,2.12,CA,2023-03-04 20:08:39
116,krasnoselkup,65.7,82.4667,-21.1,97,98,4.98,RU,2023-03-04 20:03:42
117,baruun-urt,46.6806,113.2792,-2.3,43,100,4.62,MN,2023-03-04 20:08:40
118,bandarbeyla,9.4942,50.8122,25.02,76,0,6.53,SO,2023-03-04 20:08:40
119,ponta do sol,32.6667,-17.1,20.0,89,49,1.7,PT,2023-03-04 20:08:40
120,esperance,-33.8667,121.9,18.57,64,96,7.64,AU,2023-03-04 20:08:41
121,kokopo,-4.352,152.2633,23.13,94,100,2.43,PG,2023-03-04 20:08:41
122,tazovskiy,67.4667,78.7,-28.77,100,95,3.25,RU,2023-03-04 20:08:41
123,alofi,-19.0595,-169.9187,28.94,84,75,2.57,NU,2023-03-04 20:08:41
124,nyaunglebin,17.95,96.7333,22.45,56,0,2.7,MM,2023-03-04 20:06:18
125,acapulco,16.8634,-99.8901,28.9,65,0,4.12,MX,2023-03-04 20:08:42
126,isangel,-19.55,169.2667,26.43,85,64,2.67,VU,2023-03-04 20:08:42
127,lukovetskiy,64.2956,41.9211,-19.15,100,64,1.94,RU,2023-03-04 20:08:42
128,shamgarh,24.1833,75.6333,22.96,36,10,3.58,IN,2023-03-04 20:08:43
129,agadez,19.75,10.25,27.46,7,78,3.14,NE,2023-03-04 20:08:43
130,klaksvik,62.2266,-6.589,2.51,95,100,5.85,FO,2023-03-04 20:08:43
131,mana,5.6592,-53.7767,26.75,78,61,5.93,GF,2023-03-04 20:08:43
132,gorontalo,0.5412,123.0595,23.1,94,95,1.83,ID,2023-03-04 20:08:44
133,kantunilkin,21.0917,-87.45,33.34,39,13,3.84,MX,2023-03-04 20:08:44
134,nikolskoye,59.7035,30.7861,-0.06,96,99,2.67,RU,2023-03-04 20:08:44
135,cidreira,-30.1811,-50.2056,24.41,86,87,2.97,BR,2023-03-04 20:08:44
136,victoria,22.2855,114.1577,18.03,78,0,4.92,HK,2023-03-04 20:05:46
137,podborany,50.2294,13.4119,2.79,84,100,2.6,CZ,2023-03-04 20:08:45
138,volax,41.3167,24.0,4.21,87,97,0.47,GR,2023-03-04 20:08:45
139,kodiak,57.79,-152.4072,0.73,40,0,4.12,US,2023-03-04 20:08:45
140,inhambane,-23.865,35.3833,24.66,90,24,5.86,MZ,2023-03-04 20:08:46
141,lovozero,68.005,35.0117,-10.15,92,100,2.05,RU,2023-03-04 20:08:46
142,zhangye,38.9342,100.4517,3.6,32,3,1.39,CN,2023-03-04 20:08:46
143,bulgan,48.8125,103.5347,-1.5,49,18,2.5,MN,2023-03-04 20:08:46
144,carnarvon,-24.8667,113.6333,25.31,68,0,9.95,AU,2023-03-04 20:08:47
145,broome,42.2506,-75.833,2.7,83,100,6.17,US,2023-03-04 20:08:47
146,batemans bay,-35.7167,150.1833,19.5,94,19,2.23,AU,2023-03-04 20:08:47
147,basoda,23.85,77.9333,23.04,27,16,2.79,IN,2023-03-04 20:08:47
148,sechura,-5.5569,-80.8222,29.22,55,13,6.95,PE,2023-03-04 20:08:47
149,dunmore town,25.5,-76.65,25.35,74,43,4.08,BS,2023-03-04 20:03:53
150,qaqortoq,60.7167,-46.0333,-0.09,98,83,2.81,GL,2023-03-04 20:08:48
151,talnakh,69.4865,88.3972,-24.89,99,100,1.21,RU,2023-03-04 20:08:48
152,zarubino,42.63,131.0922,-0.23,80,4,2.06,RU,2023-03-04 20:08:48
153,crotone,39.0851,17.1178,8.44,80,51,2.21,IT,2023-03-04 20:08:48
154,maningrida,-12.0667,134.2667,25.16,84,99,5.4,AU,2023-03-04 20:08:49
155,zaysan,47.4667,84.8667,-3.99,97,99,0.41,KZ,2023-03-04 20:08:49
156,saint augustine,29.8947,-81.3145,29.05,100,75,2.57,US,2023-03-04 20:08:49
157,tocopilla,-22.092,-70.1979,23.8,71,100,2.38,CL,2023-03-04 20:08:49
158,mitsamiouli,-11.3847,43.2844,28.08,77,100,6.18,KM,2023-03-04 20:08:49
159,kaeo,-35.1,173.7833,18.51,88,12,3.17,NZ,2023-03-04 20:08:50
160,karasjok,69.4719,25.5112,-6.08,95,100,2.97,NO,2023-03-04 20:08:50
161,avera,33.194,-82.5271,24.73,37,1,5.0,US,2023-03-04 20:08:50
162,paracuru,-3.41,-39.0306,27.84,77,73,4.54,BR,2023-03-04 20:08:50
163,guerrero negro,27.9769,-114.0611,17.65,52,0,5.77,MX,2023-03-04 20:08:51
164,mahebourg,-20.4081,57.7,27.92,80,100,2.36,MU,2023-03-04 20:08:51
165,kaitangata,-46.2817,169.8464,10.49,81,69,1.47,NZ,2023-03-04 20:08:51
166,dalvik,65.9702,-18.5286,2.76,96,100,3.35,IS,2023-03-04 20:08:51
167,cabo san lucas,22.8909,-109.9124,23.67,56,0,5.14,MX,2023-03-04 20:08:51
168,phuket,8.0,98.25,26.12,78,20,3.09,TH,2023-03-04 20:03:02
169,bogande,12.9714,-0.1436,31.4,9,35,3.56,BF,2023-03-04 20:08:52
170,lubumbashi,-11.6609,27.4794,18.69,98,100,1.07,CD,2023-03-04 20:08:17
171,narsaq,60.9167,-46.05,9.12,90,37,1.9,GL,2023-03-04 20:08:52
172,angoche,-16.2325,39.9086,24.91,92,100,3.09,MZ,2023-03-04 20:08:52
173,rogozno,52.7523,16.9905,-0.01,57,7,3.47,PL,2023-03-04 20:08:53
174,georgetown,5.4112,100.3354,25.96,69,20,3.6,MY,2023-03-04 20:04:49
175,vredendal,-31.6683,18.5012,18.58,85,9,2.93,ZA,2023-03-04 20:06:11
176,dongkan,33.9997,119.8308,6.13,79,2,3.17,CN,2023-03-04 20:08:53
177,imbituba,-28.24,-48.6703,32.14,72,97,3.08,BR,2023-03-04 20:08:53
178,elizabeth city,36.2946,-76.2511,19.01,42,0,7.72,US,2023-03-04 20:08:54
179,haukipudas,65.1765,25.3523,-3.31,98,99,1.57,FI,2023-03-04 20:08:54
180,katsuura,35.1333,140.3,11.12,67,100,7.71,JP,2023-03-04 20:08:54
181,ancud,-41.8697,-73.8203,14.55,60,73,4.78,CL,2023-03-04 20:08:54
182,camacha,33.0833,-16.3333,15.68,88,75,3.6,PT,2023-03-04 20:08:54
183,grand forks,47.9417,-97.4337,1.96,61,20,5.14,US,2023-03-04 20:08:55
184,ulladulla,-35.35,150.4667,17.49,92,12,2.85,AU,2023-03-04 20:08:55
185,russell,32.3502,-85.1999,24.98,33,0,2.57,US,2023-03-04 20:08:55
186,maniitsoq,65.4167,-52.9,0.65,81,8,3.02,GL,2023-03-04 20:08:55
187,pevek,69.7008,170.3133,-33.29,94,100,1.83,RU,2023-03-04 20:08:55
188,havre,49.5833,0.3333,6.22,93,100,2.57,FR,2023-03-04 20:08:56
189,rudnogorsk,57.2639,103.7519,-10.99,91,97,3.57,RU,2023-03-04 20:08:56
190,praia da vitoria,38.7333,-27.0667,15.42,79,100,10.19,PT,2023-03-04 20:08:56
191,naze,28.3667,129.4833,12.95,63,0,5.21,JP,2023-03-04 20:08:56
192,poplar bluff,36.757,-90.3929,13.88,63,0,3.09,US,2023-03-04 20:08:57
193,otane,-39.8833,176.6333,16.67,91,100,1.9,NZ,2023-03-04 20:08:57
194,luanda,-8.8368,13.2343,27.0,74,20,3.6,AO,2023-03-04 20:08:57
195,deep river,46.1001,-77.4995,3.19,80,100,1.14,CA,2023-03-04 20:08:58
196,codrington,-38.2667,141.9667,12.51,91,11,2.72,AU,2023-03-04 20:08:58
197,mantua,45.1667,10.7833,8.58,82,9,1.65,IT,2023-03-04 20:07:18
198,maba,24.6841,113.5984,13.1,54,0,0.69,CN,2023-03-04 20:08:58
199,provideniya,64.3833,-173.3,-8.15,95,100,3.35,RU,2023-03-04 20:08:58
200,capelinha,-17.6914,-42.5158,24.14,61,8,3.32,BR,2023-03-04 20:08:58
201,waitati,-45.75,170.5667,11.0,97,100,2.29,NZ,2023-03-04 20:08:59
202,sitka,57.0531,-135.33,2.94,48,40,1.54,US,2023-03-04 20:08:59
203,caravelas,-17.7125,-39.2481,27.03,67,45,3.38,BR,2023-03-04 20:08:59
204,vestmannaeyjar,63.4427,-20.2734,4.51,82,99,5.11,IS,2023-03-04 20:08:59
205,san pedro,14.35,121.0167,23.53,79,7,4.05,PH,2023-03-04 20:08:59
206,vilhena,-12.7406,-60.1458,25.51,80,100,1.43,BR,2023-03-04 20:09:00
207,masuguru,-11.3667,38.4167,22.47,97,100,1.0,TZ,2023-03-04 20:07:48
208,aykhal,66.0,111.5,-19.0,97,100,7.73,RU,2023-03-04 20:09:00
209,ajdabiya,30.7554,20.2263,15.76,79,48,7.64,LY,2023-03-04 20:09:00
210,eureka,40.8021,-124.1637,8.85,89,100,1.34,US,2023-03-04 20:09:01
211,airai,-8.9266,125.4092,14.77,92,100,1.28,TL,2023-03-04 20:09:01
212,altagracia de orituco,9.8601,-66.3814,30.96,46,70,3.54,VE,2023-03-04 20:09:01
213,omsukchan,62.5333,155.8,-38.36,98,65,2.78,RU,2023-03-04 20:09:01
214,husavik,66.0449,-17.3389,1.1,89,100,3.19,IS,2023-03-04 20:09:02
215,emerald,-23.5333,148.1667,20.75,85,2,2.75,AU,2023-03-04 20:07:53
216,hanna,51.6334,-111.9018,-8.11,92,96,4.01,CA,2023-03-04 20:09:02
217,mahajanga,-15.7167,46.3167,26.23,86,100,4.2,MG,2023-03-04 20:09:02
218,cherskiy,68.75,161.3,-40.53,97,45,1.27,RU,2023-03-04 20:09:02
219,gasa,31.5,34.4667,16.43,59,0,2.78,PS,2023-03-04 20:09:03
220,bang mun nak,16.0278,100.3792,24.99,54,33,2.1,TH,2023-03-04 20:09:03
221,trat,12.5,102.5,23.82,62,0,1.43,TH,2023-03-04 20:09:03
222,high level,58.5169,-117.136,-15.97,82,100,4.02,CA,2023-03-04 20:09:03
223,tiksi,71.6872,128.8694,-18.38,100,100,0.64,RU,2023-03-04 20:09:03
224,kamenka,51.3223,42.7678,-1.13,87,100,7.12,RU,2023-03-04 20:09:04
225,sandata,46.2708,41.7583,4.93,88,30,7.12,RU,2023-03-04 20:04:28
226,vestmanna,62.1564,-7.1664,1.51,93,100,6.69,FO,2023-03-04 20:09:04
227,saint george,37.1041,-113.5841,9.13,49,75,1.54,US,2023-03-04 20:09:04
228,alto paraguai,-14.5136,-56.4825,28.03,69,98,0.21,BR,2023-03-04 20:09:04
229,laguna de perlas,12.3429,-83.6712,27.3,71,96,5.19,NI,2023-03-04 20:09:05
230,port-gentil,-0.7193,8.7815,28.98,79,40,4.12,GA,2023-03-04 20:09:05
231,alice springs,-23.7,133.8833,17.75,39,15,2.06,AU,2023-03-04 20:09:05
232,harper,4.375,-7.7169,26.97,83,3,2.67,LR,2023-03-04 20:09:05
233,bengkulu,-3.8004,102.2655,23.12,89,100,1.66,ID,2023-03-04 20:09:06
234,beringovskiy,63.05,179.3167,-16.95,94,100,6.0,RU,2023-03-04 20:09:06
235,biltine,14.5333,20.9167,28.69,10,53,4.34,TD,2023-03-04 20:09:06
236,chokurdakh,70.6333,147.9167,-37.26,96,15,2.92,RU,2023-03-04 20:09:06
237,muhos,64.808,25.9931,-3.46,98,100,1.38,FI,2023-03-04 20:09:07
238,severo-kurilsk,50.6789,156.125,-6.48,72,99,8.96,RU,2023-03-04 20:09:07
239,puerto maldonado,-12.6,-69.1833,29.22,70,75,1.54,PE,2023-03-04 20:09:07
240,sao filipe,14.8961,-24.4956,23.01,63,1,4.07,CV,2023-03-04 20:09:07
241,olafsvik,64.8945,-23.7142,5.04,83,99,2.38,IS,2023-03-04 20:09:07
242,kharan,28.5833,65.4167,20.08,41,1,3.11,PK,2023-03-04 20:09:08
243,aksarka,66.5606,67.7975,-30.86,100,60,1.66,RU,2023-03-04 20:04:57
244,hamilton,39.1834,-84.5333,14.25,43,0,3.09,US,2023-03-04 20:09:08
245,quelimane,-17.8786,36.8883,23.92,95,60,2.29,MZ,2023-03-04 20:09:08
246,luba,3.4568,8.5547,28.06,82,18,3.93,GQ,2023-03-04 20:09:09
247,monticello,45.3055,-93.7941,3.19,67,0,3.6,US,2023-03-04 20:09:09
248,mujiayingzi,42.1167,118.7833,1.49,38,0,3.14,CN,2023-03-04 20:09:09
249,saldanha,-33.0117,17.9442,18.6,89,100,2.8,ZA,2023-03-04 20:09:09
250,lavrentiya,65.5833,-171.0,-13.55,95,100,4.84,RU,2023-03-04 20:09:10
251,laguna,38.421,-121.4238,12.25,69,100,9.26,US,2023-03-04 20:09:10
252,bonthe,7.5264,-12.505,26.02,85,20,3.99,SL,2023-03-04 20:09:10
253,lata,40.1629,-8.3327,12.67,72,100,0.61,PT,2023-03-04 20:09:10
254,minot,48.2325,-101.2963,1.12,60,0,5.14,US,2023-03-04 20:09:10
255,west fargo,46.875,-96.9004,1.12,69,0,3.09,US,2023-03-04 20:09:11
256,inuvik,68.3499,-133.7218,-31.27,95,27,0.44,CA,2023-03-04 20:09:11
257,honningsvag,70.9821,25.9704,-3.14,80,100,13.38,NO,2023-03-04 20:09:11
258,axim,4.8699,-2.2405,27.25,82,97,4.62,GH,2023-03-04 20:09:11
259,kruisfontein,-34.0033,24.7314,22.16,88,0,1.74,ZA,2023-03-04 20:04:30
260,kayes,14.0,-11.0,33.8,10,7,1.31,ML,2023-03-04 20:09:12
261,opuwo,-18.0607,13.84,18.08,40,0,2.84,NA,2023-03-04 20:09:12
262,aitape,-3.1374,142.3475,25.27,89,99,4.25,PG,2023-03-04 20:09:12
263,vadso,70.0744,29.7487,-2.51,80,100,4.63,NO,2023-03-04 20:09:12
264,koutiala,12.3917,-5.4642,32.48,11,14,3.21,ML,2023-03-04 20:09:13
265,rio grande,-32.035,-52.0986,23.93,85,97,5.79,BR,2023-03-04 20:09:13
266,marabba,12.35,32.1833,30.27,9,5,3.57,SD,2023-03-04 20:09:13
267,wuwei,37.9281,102.6414,4.39,24,2,1.4,CN,2023-03-04 20:09:13
268,verkhnevilyuysk,63.4453,120.3167,-12.79,92,96,3.81,RU,2023-03-04 20:09:13
269,bambanglipuro,-7.95,110.2833,25.64,86,100,3.87,ID,2023-03-04 20:09:14
270,qax,41.4225,46.9242,8.55,60,40,1.69,AZ,2023-03-04 20:09:14
271,ossora,59.2353,163.0719,-31.25,83,2,1.36,RU,2023-03-04 20:09:14
272,palaikastron,35.2,26.25,14.73,85,91,4.97,GR,2023-03-04 20:09:14
273,lorengau,-2.0226,147.2712,25.83,85,100,4.63,PG,2023-03-04 20:09:15
274,fairbanks,64.8378,-147.7164,-19.55,78,59,1.28,US,2023-03-04 20:02:04
275,aklavik,68.2191,-135.0107,-29.44,94,17,2.18,CA,2023-03-04 20:09:15
276,conde,-7.2597,-34.9075,27.01,70,100,5.33,BR,2023-03-04 20:09:15
277,bayonet point,28.3267,-82.6834,30.1,67,0,2.24,US,2023-03-04 20:09:15
278,safi,32.1667,-8.8333,13.05,58,100,3.98,MA,2023-03-04 20:09:16
279,norman wells,65.282,-126.8329,-24.15,92,84,4.54,CA,2023-03-04 20:09:16
280,erzin,36.9559,36.2,12.32,83,92,1.44,TR,2023-03-04 20:09:16
281,ostrovnoy,68.0531,39.5131,-11.88,90,100,3.57,RU,2023-03-04 20:09:16
282,natal,-5.795,-35.2094,27.56,71,90,5.65,BR,2023-03-04 20:06:04
283,yarim,14.298,44.3779,14.4,45,89,1.59,YE,2023-03-04 20:09:17
284,mocuba,-16.8392,36.9856,23.81,88,100,1.21,MZ,2023-03-04 20:09:17
285,jiuquan,39.7432,98.5174,3.61,32,6,1.17,CN,2023-03-04 20:09:17
286,leibnitz,46.7816,15.5384,7.16,76,2,0.45,AT,2023-03-04 20:09:17
287,likasi,-10.9814,26.7333,18.39,97,100,1.18,CD,2023-03-04 20:09:18
288,beidao,34.5686,105.8933,8.24,61,1,1.95,CN,2023-03-04 20:09:18
289,lannion,48.75,-3.4167,6.12,70,100,2.06,FR,2023-03-04 20:09:18
290,nakhon nayok,14.1667,101.1,23.55,54,38,2.01,TH,2023-03-04 20:09:18
291,cayenne,4.9333,-52.3333,28.02,74,100,5.14,GF,2023-03-04 20:09:19
292,bogale,16.2833,95.4,23.11,63,0,1.63,MM,2023-03-04 20:09:19
293,lac du bonnet,50.2536,-96.0612,-0.97,80,39,2.48,CA,2023-03-04 20:09:19
294,vagur,61.4732,-6.8119,4.0,93,100,5.2,FO,2023-03-04 20:09:19
295,neiafu,-18.65,-173.9833,29.38,79,40,5.14,TO,2023-03-04 20:09:19
296,yaan,7.3833,8.5667,28.41,64,100,6.47,NG,2023-03-04 20:09:20
297,tezu,27.9167,96.1667,19.54,40,17,2.15,IN,2023-03-04 20:09:20
298,padang,-0.9492,100.3543,24.25,86,77,2.19,ID,2023-03-04 20:09:20
299,aswan,24.0934,32.907,26.56,18,65,4.62,EG,2023-03-04 20:07:23
300,chimbote,-9.0853,-78.5783,26.06,69,70,4.79,PE,2023-03-04 20:09:21
301,khorramabad,33.4878,48.3558,11.77,55,0,0.81,IR,2023-03-04 20:09:21
302,gao,16.6362,1.637,29.01,10,34,4.24,ML,2023-03-04 20:09:21
303,longhua,23.6137,114.1919,14.18,55,0,1.0,CN,2023-03-04 20:09:21
304,whyalla,-33.0333,137.5833,20.28,70,2,2.49,AU,2023-03-04 20:05:20
305,zhanaozen,43.3,52.8,5.13,69,53,5.18,KZ,2023-03-04 20:09:22
306,manzanillo,20.3433,-77.1167,30.6,43,100,5.11,CU,2023-03-04 20:09:22
307,puerto escondido,15.85,-97.0667,29.46,65,0,5.14,MX,2023-03-04 20:09:22
308,shakawe,-18.3667,21.85,24.63,57,52,2.53,BW,2023-03-04 20:09:22
309,kashi,39.4547,75.9797,7.9,40,100,2.16,CN,2023-03-04 20:09:23
310,rajsamand,25.0667,73.8833,20.68,38,14,1.76,IN,2023-03-04 20:09:23
311,southbridge,42.0751,-72.0334,3.43,91,97,2.24,US,2023-03-04 20:09:23
312,shingu,33.7333,135.9833,6.97,61,100,2.31,JP,2023-03-04 20:09:23
313,karatau,43.1667,70.4667,9.78,58,100,3.27,KZ,2023-03-04 20:06:29
314,bac lieu,9.285,105.7244,24.2,75,100,8.42,VN,2023-03-04 20:09:24
315,constitucion,-35.3333,-72.4167,22.59,48,10,7.84,CL,2023-03-04 20:09:24
316,komsomolskiy,40.4272,71.7189,7.4,76,15,4.12,UZ,2023-03-04 20:09:24
317,sokoni,-6.4333,39.55,27.53,73,14,6.1,TZ,2023-03-04 20:09:25
318,sargur,11.9833,76.4167,20.7,42,0,2.64,IN,2023-03-04 20:09:25
319,gornyy,55.1153,83.9059,-8.78,93,96,4.95,RU,2023-03-04 20:09:25
320,nsanje,-16.92,35.262,24.03,88,100,1.39,MW,2023-03-04 20:09:25
321,clyde river,70.4692,-68.5914,-17.69,73,98,2.25,CA,2023-03-04 20:09:26
322,general roca,-39.0333,-67.5833,32.57,18,100,5.98,AR,2023-03-04 20:06:21
323,lompoc,34.6391,-120.4579,12.69,71,100,4.63,US,2023-03-04 20:09:26
324,vila velha,-20.3297,-40.2925,28.3,76,57,3.58,BR,2023-03-04 20:09:26
325,wencheng,33.0559,113.7978,11.81,34,0,1.19,CN,2023-03-04 20:09:26
326,sambava,-14.2667,50.1667,25.43,88,100,2.84,MG,2023-03-04 20:09:27
327,pangody,65.85,74.4859,-27.57,100,94,2.62,RU,2023-03-04 20:09:27
328,faanui,-16.4833,-151.75,27.65,73,100,4.7,PF,2023-03-04 20:09:27
329,gambo,4.6482,22.2633,27.44,33,51,0.83,CF,2023-03-04 20:09:27
330,mackay,-21.15,149.2,22.6,75,87,4.84,AU,2023-03-04 20:09:28
331,port macquarie,-31.4333,152.9167,16.05,89,2,1.93,AU,2023-03-04 20:09:28
332,sabang,5.8933,95.3214,27.89,71,72,6.85,ID,2023-03-04 20:09:28
333,honiara,-9.4333,159.95,25.46,85,100,2.94,SB,2023-03-04 20:09:29
334,buala,-8.145,159.5921,25.82,82,100,3.49,SB,2023-03-04 20:09:29
335,arani,12.6667,79.2833,20.75,86,0,1.61,IN,2023-03-04 20:09:29
336,port hardy,50.6996,-127.4199,5.17,72,17,3.75,CA,2023-03-04 20:09:29
337,tigil,57.8,158.6667,-22.01,99,96,2.39,RU,2023-03-04 20:09:30
338,vardo,70.3705,31.1107,-3.01,93,100,2.06,NO,2023-03-04 20:09:30
339,richards bay,-28.783,32.0377,22.36,89,5,2.52,ZA,2023-03-04 20:09:30
340,luderitz,-26.6481,15.1594,16.82,86,0,2.38,NA,2023-03-04 20:09:31
341,egvekinot,66.3167,-179.1667,-23.76,98,100,5.23,RU,2023-03-04 20:09:31
342,sao miguel do iguacu,-25.3481,-54.2378,27.69,64,82,1.92,BR,2023-03-04 20:09:31
343,yumen,40.2833,97.2,3.67,34,19,3.34,CN,2023-03-04 20:09:31
344,kavaratti,10.5669,72.642,27.77,57,0,1.34,IN,2023-03-04 20:09:31
345,gweru,-19.45,29.8167,16.61,77,1,4.08,ZW,2023-03-04 20:06:15
346,kahului,20.8947,-156.47,24.43,77,40,6.69,US,2023-03-04 20:09:32
347,kismayo,-0.3582,42.5454,25.88,80,6,8.32,SO,2023-03-04 20:09:32
348,qaanaaq,77.484,-69.3632,-12.32,45,0,3.81,GL,2023-03-04 20:09:32
349,parkes,-33.1333,148.1833,20.2,64,29,2.24,AU,2023-03-04 20:09:33
350,bardiyah,31.7561,25.0865,20.52,43,80,4.64,LY,2023-03-04 20:09:33
351,palu,-0.8917,119.8707,23.56,95,100,0.81,ID,2023-03-04 20:09:33
352,huarmey,-10.0681,-78.1522,25.7,73,60,4.51,PE,2023-03-04 20:09:33
353,kijang,35.2442,129.2139,7.72,67,6,3.13,KR,2023-03-04 20:09:33
354,rawson,-43.3002,-65.1023,26.51,18,35,5.61,AR,2023-03-04 20:09:34
355,toyooka,35.5333,134.8333,4.41,77,100,1.35,JP,2023-03-04 20:09:34
356,nambucca heads,-30.65,153.0,17.32,78,12,1.33,AU,2023-03-04 20:09:34
357,darya khan,31.7912,71.1039,19.05,47,40,2.83,PK,2023-03-04 20:09:34
358,matara,5.9485,80.5353,25.26,82,99,5.21,LK,2023-03-04 20:09:35
359,hualmay,-11.0964,-77.6139,25.09,73,47,4.31,PE,2023-03-04 20:09:35
360,dwarka,22.2394,68.9678,24.85,64,0,4.64,IN,2023-03-04 20:09:35
361,colac,-38.3333,143.5833,14.49,81,8,0.35,AU,2023-03-04 20:09:35
362,narasannapeta,18.4167,84.05,22.89,62,0,2.25,IN,2023-03-04 20:09:36
363,siocon,7.7061,122.1353,24.8,86,86,3.71,PH,2023-03-04 20:09:36
364,anshun,26.25,105.9333,11.09,79,100,1.07,CN,2023-03-04 20:09:36
365,mozhga,56.4447,52.2276,-4.28,98,100,0.88,RU,2023-03-04 20:09:36
366,ouadda,8.0777,22.4007,24.23,15,17,2.14,CF,2023-03-04 20:09:37
367,juneau,58.3019,-134.4197,0.0,76,20,7.72,US,2023-03-04 20:09:37
368,payo,-3.7508,103.6372,21.31,98,100,0.9,ID,2023-03-04 20:09:37
369,gallup,35.5281,-108.7426,10.91,32,0,8.23,US,2023-03-04 20:09:37
370,lasa,46.6166,10.7002,1.5,85,21,2.73,IT,2023-03-04 20:09:38
371,oranjemund,-28.55,16.4333,18.01,83,0,1.39,NA,2023-03-04 20:09:38
372,karpathos,35.507,27.2132,15.98,77,95,6.17,GR,2023-03-04 20:09:38
373,cururupu,-1.8283,-44.8683,25.67,92,100,1.85,BR,2023-03-04 20:09:38
374,nanortalik,60.1432,-45.2371,3.44,85,88,7.87,GL,2023-03-04 20:09:39
375,goure,13.9835,10.2704,28.75,11,0,4.22,NE,2023-03-04 20:09:39
376,auki,-8.7676,160.7034,25.78,84,100,4.18,SB,2023-03-04 20:09:39
377,havoysund,70.9963,24.6622,-2.87,90,100,14.85,NO,2023-03-04 20:09:39
378,kelo,9.3086,15.8066,33.82,15,59,2.81,TD,2023-03-04 20:09:39
379,kieta,-6.2167,155.6333,24.53,88,100,2.89,PG,2023-03-04 20:09:40
380,leshan,29.5623,103.7639,15.38,69,96,0.43,CN,2023-03-04 20:09:40
381,okha,53.5739,142.9478,-10.13,90,92,3.78,RU,2023-03-04 20:05:52
382,chilca,-12.5211,-76.7372,23.68,80,79,3.45,PE,2023-03-04 20:09:40
383,chumikan,54.7183,135.315,-0.84,78,100,10.55,RU,2023-03-04 20:09:40
384,melendugno,40.2747,18.3368,8.92,84,93,1.08,IT,2023-03-04 20:09:41
385,havre-saint-pierre,50.2334,-63.5986,-5.85,71,29,4.93,CA,2023-03-04 20:09:41
386,polunochnoye,60.8697,60.4153,-9.47,97,100,1.4,RU,2023-03-04 20:09:41
387,duldurga,50.6761,113.5931,-2.88,79,29,2.44,RU,2023-03-04 20:09:41
388,muborak,39.2553,65.1528,17.9,31,100,7.53,UZ,2023-03-04 20:09:42
389,tessalit,20.1986,1.0114,26.03,7,89,2.46,ML,2023-03-04 20:09:42
390,umm lajj,25.0213,37.2685,26.45,44,96,2.81,SA,2023-03-04 20:09:42
391,pretoria,-25.7449,28.1878,23.45,67,74,2.33,ZA,2023-03-04 20:05:45
392,banjar,-8.19,114.9675,24.47,91,100,2.29,ID,2023-03-04 20:09:42
393,marsaxlokk,35.8419,14.5431,12.34,66,20,6.69,MT,2023-03-04 20:05:23
394,moron,-34.6534,-58.6198,30.94,68,78,4.51,AR,2023-03-04 20:09:43
395,hervey bay,-25.2986,152.8535,22.93,78,55,5.04,AU,2023-03-04 20:09:43
396,bichura,50.5881,107.6022,-2.05,96,100,2.23,RU,2023-03-04 20:09:43
397,hit,33.6416,42.8251,19.49,32,0,2.61,IQ,2023-03-04 20:09:44
398,mulanje,-16.0316,35.5,21.43,87,100,1.51,MW,2023-03-04 20:09:44
399,grand gaube,-20.0064,57.6608,27.99,77,100,2.24,MU,2023-03-04 20:09:44
400,buseresere,-3.0236,31.8747,18.68,88,97,0.85,TZ,2023-03-04 20:09:44
401,ovsyanka,55.9575,92.5519,-6.46,89,100,4.52,RU,2023-03-04 20:09:45
402,tymovskoye,50.8456,142.655,-11.18,92,100,2.77,RU,2023-03-04 20:09:07
403,kendari,-3.945,122.4989,23.65,94,100,1.38,ID,2023-03-04 20:09:45
404,port augusta,-32.5,137.7667,19.59,63,3,1.42,AU,2023-03-04 20:09:45
405,vao,-22.6667,167.4833,24.87,78,63,8.45,NC,2023-03-04 20:09:45
406,pitimbu,-7.4706,-34.8086,27.77,70,100,5.13,BR,2023-03-04 20:09:46
407,mezen,65.8522,44.24,-21.45,100,99,1.17,RU,2023-03-04 20:09:46
408,taretan,19.3333,-101.9167,26.06,56,75,3.09,MX,2023-03-04 20:09:46
409,savannah bight,16.45,-85.85,26.41,70,44,2.26,HN,2023-03-04 20:09:46
410,san rafael del sur,11.8485,-86.4384,33.54,41,6,0.93,NI,2023-03-04 20:09:46
411,kuantan,3.8077,103.326,23.6,90,100,4.15,MY,2023-03-04 20:09:47
412,boshnyakovo,49.6333,142.1667,-8.25,84,96,3.52,RU,2023-03-04 20:09:47
413,grindavik,63.8424,-22.4338,4.97,100,75,2.06,IS,2023-03-04 20:09:47
414,beihai,21.4833,109.1,19.46,81,0,3.18,CN,2023-03-04 20:05:42
415,biograd na moru,43.9433,15.4519,9.31,74,22,3.07,HR,2023-03-04 20:06:27
416,sechenovo,55.2244,45.8906,-5.34,97,99,2.79,RU,2023-03-04 20:09:48
417,sihor,21.7,71.9667,27.96,27,18,3.63,IN,2023-03-04 20:09:48
418,trinidad,-14.8333,-64.9,30.99,70,75,3.6,BO,2023-03-04 20:04:51
419,quesnel,52.9999,-122.5029,-3.71,86,32,1.39,CA,2023-03-04 20:05:53
420,chitral,35.8462,71.7858,5.8,65,100,2.66,PK,2023-03-04 20:09:49
421,celestun,20.8667,-90.4,27.4,72,32,5.13,MX,2023-03-04 20:09:49
422,kanevskaya,46.0849,38.9596,5.72,90,20,7.26,RU,2023-03-04 20:09:49
423,kuloy,61.0305,42.4925,-10.38,97,93,2.43,RU,2023-03-04 20:09:49
424,andenes,69.3143,16.1194,-0.84,85,100,17.48,NO,2023-03-04 20:03:55
425,nizhniy odes,63.6445,54.856,-24.89,100,100,1.99,RU,2023-03-04 20:09:50
426,san andres,12.5847,-81.7006,30.01,66,20,6.17,CO,2023-03-04 20:09:50
427,coquimbo,-29.9533,-71.3436,19.85,77,20,5.66,CL,2023-03-04 20:06:37
428,te anau,-45.4167,167.7167,8.23,89,68,1.52,NZ,2023-03-04 20:09:50
429,santiago del estero,-27.7951,-64.2615,36.35,26,0,1.61,AR,2023-03-04 20:08:30
430,bayangol,50.6977,103.4656,-9.2,99,88,1.02,RU,2023-03-04 20:09:50
431,kalmunai,7.4167,81.8167,24.74,88,100,3.49,LK,2023-03-04 20:09:51
432,rio de janeiro,-22.9028,-43.2075,33.0,61,40,9.77,BR,2023-03-04 19:57:44
433,vostok,46.4856,135.8833,-11.53,91,7,2.73,RU,2023-03-04 20:09:51
434,porto novo,6.4965,2.6036,27.49,79,79,2.81,BJ,2023-03-04 20:09:51
435,sembakung,3.8167,117.25,21.88,99,100,1.01,ID,2023-03-04 20:09:52
436,xuddur,4.1213,43.8894,25.28,50,10,7.28,SO,2023-03-04 20:09:52
437,lebu,-37.6167,-73.65,16.58,61,0,8.08,CL,2023-03-04 20:09:52
438,moose factory,51.2585,-80.6094,0.12,99,100,2.39,CA,2023-03-04 20:09:52
439,sagua la grande,22.8067,-80.0756,31.55,46,46,1.28,CU,2023-03-04 20:09:53
440,iqaluit,63.7506,-68.5145,-3.26,72,100,9.22,CA,2023-03-04 20:09:53
441,vila franca do campo,37.7167,-25.4333,15.23,72,100,5.78,PT,2023-03-04 20:09:53
442,biak,-0.9131,122.8766,24.98,77,97,1.58,ID,2023-03-04 20:09:53
443,yerofey pavlovich,53.9667,121.9667,-10.5,95,100,2.18,RU,2023-03-04 20:09:53
444,shubarshi,48.5872,57.1869,0.16,99,100,4.77,KZ,2023-03-04 20:09:54
445,coihaique,-45.5752,-72.0662,11.34,87,100,1.03,CL,2023-03-04 20:09:54
446,westport,41.1415,-73.3579,7.4,71,100,6.69,US,2023-03-04 20:09:54
447,kuandian,40.7286,124.7847,0.73,84,10,0.79,CN,2023-03-04 20:09:54
448,balkanabat,39.5108,54.3671,13.51,59,99,4.86,TM,2023-03-04 20:09:55
449,funtua,11.5233,7.3081,27.89,16,5,4.2,NG,2023-03-04 20:09:55
450,ashtian,34.5217,50.0019,6.51,55,5,8.2,IR,2023-03-04 20:09:55
451,vagay,57.9375,69.0217,-9.95,97,98,2.46,RU,2023-03-04 20:09:55
452,nemuro,43.3236,145.575,-3.86,86,8,5.3,JP,2023-03-04 20:09:55
453,ketchikan,55.3422,-131.6461,3.99,81,75,3.6,US,2023-03-04 20:09:56
454,karratha,-20.7377,116.8463,29.1,73,95,4.28,AU,2023-03-04 20:09:56
455,bathsheba,13.2167,-59.5167,28.34,65,40,8.23,BB,2023-03-04 20:09:56
456,poronaysk,49.2167,143.1167,-14.39,97,96,1.14,RU,2023-03-04 20:09:07
457,raga,8.4596,25.678,27.39,12,57,1.74,SS,2023-03-04 20:09:57
458,corowa,-36.0333,146.3833,20.79,71,0,5.14,AU,2023-03-04 20:09:57
459,palmer,42.1584,-72.3287,4.17,73,100,4.63,US,2023-03-04 20:05:04
460,kununurra,-15.7667,128.7333,24.99,88,66,0.0,AU,2023-03-04 20:09:57
461,brigantine,39.4101,-74.3646,12.89,54,40,13.38,US,2023-03-04 20:09:58
462,moyale,3.5167,39.0584,25.21,33,100,7.96,KE,2023-03-04 20:09:58
463,lakes entrance,-37.8811,147.981,16.76,75,99,2.07,AU,2023-03-04 20:09:58
464,nagato,34.3833,131.2,8.05,73,10,5.38,JP,2023-03-04 20:09:58
465,bongandanga,1.5,21.05,23.28,73,98,0.26,CD,2023-03-04 20:09:58
466,port lincoln,-34.7333,135.8667,17.82,75,28,3.95,AU,2023-03-04 20:09:59
467,chapais,49.7834,-74.8492,-1.33,77,100,1.43,CA,2023-03-04 20:09:59
468,san cristobal,7.7669,-72.225,27.1,57,88,2.48,VE,2023-03-04 20:09:59
469,srednekolymsk,67.45,153.6833,-42.78,100,49,0.92,RU,2023-03-04 20:09:59
470,risor,58.7206,9.2342,0.26,53,100,4.19,NO,2023-03-04 20:09:59
471,hay river,60.8156,-115.7999,-19.02,65,40,8.23,CA,2023-03-04 20:10:00
472,tarrafal,15.2833,-23.7667,24.44,75,0,5.7,CV,2023-03-04 20:10:00
473,denpasar,-8.65,115.2167,26.81,88,40,4.63,ID,2023-03-04 20:10:00
474,barao de melgaco,-16.1944,-55.9675,33.24,43,72,1.55,BR,2023-03-04 20:10:01
475,manicore,-5.8092,-61.3003,28.0,89,100,1.64,BR,2023-03-04 20:10:01
476,san ramon de la nueva oran,-23.1322,-64.326,35.79,32,83,1.9,AR,2023-03-04 20:10:01
477,paignton,50.4357,-3.5679,4.84,77,98,3.58,GB,2023-03-04 20:07:09
478,henties bay,-22.116,14.2845,18.07,78,0,3.61,NA,2023-03-04 20:10:01
479,porto belo,-27.1578,-48.5531,29.27,90,47,3.09,BR,2023-03-04 20:10:02
480,san juan,-31.5375,-68.5364,33.98,16,0,2.9,AR,2023-03-04 20:07:25
481,slave lake,55.2834,-114.769,-13.13,76,100,4.72,CA,2023-03-04 20:10:02
482,canico,32.6333,-16.85,20.0,87,40,0.51,PT,2023-03-04 20:09:29
483,bubaque,11.2833,-15.8333,24.23,66,52,5.97,GW,2023-03-04 20:10:02
484,souillac,-20.5167,57.5167,25.64,83,100,2.8,MU,2023-03-04 20:10:03
485,los llanos de aridane,28.6585,-17.9182,17.86,92,75,0.89,ES,2023-03-04 20:10:03
486,nola,40.922,14.5329,11.89,88,79,1.89,IT,2023-03-04 20:10:03
487,xining,36.6167,101.7667,1.18,29,0,0.99,CN,2023-03-04 20:10:03
488,kerema,-7.9631,145.7785,24.6,82,100,1.8,PG,2023-03-04 20:10:04
489,fortuna,40.5982,-124.1573,8.7,95,40,4.63,US,2023-03-04 20:10:04
490,viedma,-40.8135,-62.9967,26.47,18,11,7.58,AR,2023-03-04 20:09:42
491,nabire,-3.3667,135.4833,22.87,93,54,1.61,ID,2023-03-04 20:10:04
492,mount gambier,-37.8333,140.7667,11.52,96,5,2.09,AU,2023-03-04 20:10:04
493,kabo,7.6994,18.629,29.71,15,34,2.14,CF,2023-03-04 20:10:05
494,chippewa falls,44.9369,-91.3929,5.1,66,20,3.6,US,2023-03-04 20:10:05
495,shache,38.4167,77.2406,8.81,35,100,2.09,CN,2023-03-04 20:10:05
496,pacific grove,36.6177,-121.9166,13.14,68,0,7.2,US,2023-03-04 20:10:05
497,honolulu,21.3069,-157.8583,24.61,74,67,1.79,US,2023-03-04 19:59:54
498,manaia,-39.55,174.1333,15.6,89,100,3.98,NZ,2023-03-04 20:10:06
499,gorgan,36.8387,54.4348,17.48,35,48,1.32,IR,2023-03-04 20:08:52
500,talaya,61.3833,152.75,-38.83,93,57,0.98,RU,2023-03-04 20:10:06
501,dafeng,23.4517,108.5881,18.48,50,0,0.99,CN,2023-03-04 20:10:06
502,sibu,2.3,111.8167,22.52,99,100,1.53,MY,2023-03-04 20:10:07
503,shaunavon,49.6501,-108.4181,-4.09,76,1,1.76,CA,2023-03-04 20:10:07
504,bonfim,3.0833,-59.95,32.78,40,78,5.7,BR,2023-03-04 20:10:07
505,ambilobe,-13.2,49.05,23.27,96,100,0.43,MG,2023-03-04 20:10:07
506,trzic,46.3636,14.3105,2.42,72,20,1.03,SI,2023-03-04 20:10:07
507,paita,-5.0892,-81.1144,27.28,64,11,6.41,PE,2023-03-04 20:10:08
508,tura,25.5198,90.2201,20.14,42,0,1.25,IN,2023-03-04 20:10:08
509,bilma,18.6853,12.9164,30.24,11,0,2.88,NE,2023-03-04 20:10:08
510,belaya gora,68.5333,146.4167,-41.72,100,85,1.03,RU,2023-03-04 20:10:08
511,muravlenko,63.7898,74.523,-27.56,100,76,3.11,RU,2023-03-04 20:08:11
512,tha bo,17.85,102.5814,20.54,71,0,2.18,TH,2023-03-04 20:10:09
513,yerbogachen,61.2767,108.0108,-10.9,88,100,3.67,RU,2023-03-04 20:10:09
514,farafangana,-22.8167,47.8333,23.5,95,100,2.04,MG,2023-03-04 20:10:09
515,dromolaxia,34.8761,33.586,13.88,87,0,1.03,CY,2023-03-04 20:10:09
516,nara,34.6851,135.8049,4.72,54,69,0.52,JP,2023-03-04 20:10:10
517,saint-augustin,51.226,-58.6502,-7.89,76,100,3.32,CA,2023-03-04 20:10:10
518,biankouma,7.7391,-7.6138,23.77,76,29,1.82,CI,2023-03-04 20:10:10
519,londoko,49.0333,131.9833,-11.98,98,79,0.66,RU,2023-03-04 20:10:11
520,heishan,41.6892,122.1128,1.88,79,0,3.83,CN,2023-03-04 20:10:11
521,hazebrouck,50.7237,2.5373,6.25,88,100,3.4,FR,2023-03-04 20:10:11
522,debre tabor,11.85,38.0167,18.01,32,74,1.21,ET,2023-03-04 20:10:11
523,haines junction,60.7522,-137.5108,-16.19,85,89,2.15,CA,2023-03-04 20:10:11
524,dubuque,42.4833,-90.8668,6.46,71,100,4.63,US,2023-03-04 20:10:12
525,nueva rosita,27.95,-101.2167,27.58,12,0,2.91,MX,2023-03-04 20:10:13
526,nicoya,10.1483,-85.452,35.87,35,9,3.16,CR,2023-03-04 20:10:13
527,dunedin,-45.8742,170.5036,11.0,97,99,0.89,NZ,2023-03-04 20:10:14
528,buribay,51.9617,58.1592,-7.81,97,100,2.74,RU,2023-03-04 20:10:14
529,ermoupolis,37.4423,24.9425,15.62,66,64,5.14,GR,2023-03-04 20:10:14
530,shar,49.5886,81.0453,-14.77,98,52,2.86,KZ,2023-03-04 20:10:14
531,seminole,28.7086,-81.2081,32.45,53,40,8.75,US,2023-03-04 20:10:14
532,sao felix do xingu,-6.6447,-51.995,27.13,90,68,0.96,BR,2023-03-04 20:10:15
533,tanete,-3.9443,119.7848,23.63,94,100,1.9,ID,2023-03-04 20:10:15
534,wajir,1.7471,40.0573,31.28,25,99,5.45,KE,2023-03-04 20:10:15
535,porto uniao,-26.2381,-51.0783,28.45,48,69,2.99,BR,2023-03-04 20:10:15
536,zhezkazgan,47.8043,67.7144,-6.58,90,100,3.22,KZ,2023-03-04 20:10:16
537,portel,-1.9356,-50.8211,25.29,89,100,1.3,BR,2023-03-04 20:10:16
538,kosh-agach,50.0,88.6667,-18.24,77,100,1.41,RU,2023-03-04 20:10:16
539,tahe,52.3333,124.7333,1.06,64,100,4.85,CN,2023-03-04 20:10:16
540,okhotsk,59.3833,143.3,-23.61,99,100,2.24,RU,2023-03-04 20:10:16
541,gazanjyk,39.2446,55.5154,14.64,49,98,2.77,TM,2023-03-04 20:10:17
542,sandnessjoen,66.0217,12.6316,-0.71,76,98,2.68,NO,2023-03-04 20:10:17
543,koungheul,13.9833,-14.8,33.31,12,60,1.48,SN,2023-03-04 20:10:17
544,santa luzia,-19.7697,-43.8514,26.7,63,10,2.06,BR,2023-03-04 20:10:09
545,bagepalli,13.7847,77.7931,20.0,47,0,2.82,IN,2023-03-04 20:10:18
546,takoradi,4.8845,-1.7554,27.38,81,98,4.55,GH,2023-03-04 20:05:38
547,bulaevo,54.9056,70.4439,-6.28,93,100,4.93,KZ,2023-03-04 20:10:27
548,faya,18.3851,42.4509,13.29,55,39,1.72,SA,2023-03-04 20:10:28
549,yeppoon,-23.1333,150.7333,20.88,87,19,4.66,AU,2023-03-04 20:10:28
550,gucheng,35.9115,111.3192,9.77,20,0,1.15,CN,2023-03-04 20:10:28
551,macae,-22.3708,-41.7869,27.1,74,100,7.41,BR,2023-03-04 20:09:28
552,rahuri,19.3833,74.65,28.36,26,71,1.75,IN,2023-03-04 20:10:29
553,alugan,12.2188,125.4808,24.6,86,39,4.49,PH,2023-03-04 20:10:29
554,okato,-39.2,173.8833,17.17,100,35,3.41,NZ,2023-03-04 20:10:29
555,holovyne,50.4712,28.8253,-0.21,90,59,9.17,UA,2023-03-04 20:10:29
